{"type": "FeatureCollection", "features": [{"type": "Feature", "geometry": {"type": "Point", "coordinates": [113.66442086321543, 34.76914493407875]}, "properties": {"title": "Space", "placeId": 24, "category": "Club", "logo": "/static/img/no_logo.jpg", "rating": 5.0, "ratingStatus": "Excellent", "policeRating": 5, "policeRatingStatus": "Detention cases", "address": "\u94ed\u529f\u8def130\u53f7", "openingHours": "20:00:00", "closingHours": "06:00:00", "detailsUrl": "http://localhost:8000/api/places/24/", "phoneNumber": "186 9589 4322", "randomImage": "/media/images/place24/ODhttIxmjMnXWFMGJw8eJ7nynY1NkF.jpg"}}, {"type": "Feature", "geometry": {"type": "Point", "coordinates": [113.67899849765844, 34.77663055880002]}, "properties": {"title": "CP bar", "placeId": 7, "category": "Bar", "logo": "/static/img/no_logo.jpg", "rating": 4.7, "ratingStatus": "Excellent", "policeRating": 2, "policeRatingStatus": "Better be cautious", "address": "\u91d1\u6c34\u533a\u7ecf\u4e03\u8def48-\u96442", "openingHours": "13:00:00", "closingHours": "00:00:00", "detailsUrl": "http://localhost:8000/api/places/7/", "phoneNumber": "132 1336 2664", "randomImage": "/media/images/9d68cb347b7b43d1d0218b17b70c1fca195996.jpg"}}, {"type": "Feature", "geometry": {"type": "Point", "coordinates": [113.6855620001044, 34.775219969499524]}, "properties": {"title": "Target Pub", "placeId": 1, "category": "Pub", "logo": "/media/logos/gHV648MEBDY.thumbnail.jpg", "rating": 3.6, "ratingStatus": "Very Good", "policeRating": 5, "policeRatingStatus": "Detention cases", "address": "\u91d1\u6c34\u533a\u7eac\u4e09\u8def9-9\u53f7", "openingHours": "18:00:00", "closingHours": "03:00:00", "detailsUrl": "http://localhost:8000/api/places/1/", "phoneNumber": "132 1323 3764", "randomImage": "/media/images/place1/VFg7ZzTjIJNEm1sa35rCJmkGScbMp7.jpg"}}, {"type": "Feature", "geometry": {"type": "Point", "coordinates": [113.64867367991371, 34.720752124553655]}, "properties": {"title": "Music BAR", "placeId": 8, "category": "Bar", "logo": "/static/img/no_logo.jpg", "rating": 0.0, "ratingStatus": "Not rated", "policeRating": 1, "policeRatingStatus": "No cases yet", "address": "\u5927\u5b66\u5357\u8def166\u53f7\u5bcc\u534e\u82b1\u82d1\u4e00\u53f7\u697c\u4e8c\u5355\u51431\u53f7\u5546\u94fa", "openingHours": "12:00:00", "closingHours": "02:00:00", "detailsUrl": "http://localhost:8000/api/places/8/", "phoneNumber": "132 9999 9999", "randomImage": "/media/images/1FRIpjB9fcjaoWf7VoWfY81VgM58s9x.jpg"}}, {"type": "Feature", "geometry": {"type": "Point", "coordinates": [113.77653686925406, 34.7587076790891]}, "properties": {"title": "YAN BAR", "placeId": 9, "category": "Bar", "logo": "/static/img/no_logo.jpg", "rating": 0.0, "ratingStatus": "Not rated", "policeRating": 5, "policeRatingStatus": "Detention cases", "address": "\u4e1c\u98ce\u5357\u8def\u6d77\u6c47\u4e2d\u5fc3", "openingHours": "19:00:00", "closingHours": "03:00:00", "detailsUrl": "http://localhost:8000/api/places/9/", "phoneNumber": "132 1323 3333", "randomImage": "/media/images/0D5F8zgsPnti3WCnuftIePyanFcJOL.jpg"}}, {"type": "Feature", "geometry": {"type": "Point", "coordinates": [113.68453394604148, 34.77519638669751]}, "properties": {"title": "Heavenly Palace Whisky bar", "placeId": 10, "category": "Bar", "logo": "/static/img/no_logo.jpg", "rating": 0.0, "ratingStatus": "Not rated", "policeRating": 1, "policeRatingStatus": "No cases yet", "address": "\u91d1\u6c34\u533a\u7ecf\u4e94\u8def\u4e0e\u7eac\u4e09\u8def\u4ea4\u53c9\u53e3\u963f\u4e94\u9ec4\u6cb3\u5927\u9ca4\u9c7c\u9694\u58c1", "openingHours": "18:00:00", "closingHours": "02:00:00", "detailsUrl": "http://localhost:8000/api/places/10/", "phoneNumber": "132 9999 9999", "randomImage": "/media/images/place10/q8gTSm4VWZNulG18W8aNUBJpeTz7ZF.jfif"}}, {"type": "Feature", "geometry": {"type": "Point", "coordinates": [113.67846595340635, 34.77908494522322]}, "properties": {"title": "Near Bar", "placeId": 11, "category": "Bar", "logo": "/static/img/no_logo.jpg", "rating": 0.0, "ratingStatus": "Not rated", "policeRating": 1, "policeRatingStatus": "No cases yet", "address": "\u91d1\u6c34\u533a\u7ecf\u4e03\u8def31\u53f7", "openingHours": "10:00:00", "closingHours": "23:30:00", "detailsUrl": "http://localhost:8000/api/places/11/", "phoneNumber": "186 3857 6645", "randomImage": "/media/images/place11/KXqcOmtQRG83OGcmzNUHNBqLLlNYCE.jpg"}}, {"type": "Feature", "geometry": {"type": "Point", "coordinates": [113.77784282580446, 34.77678421860467]}, "properties": {"title": "moon bar", "placeId": 12, "category": "Bar", "logo": "/static/img/no_logo.jpg", "rating": 0.0, "ratingStatus": "Not rated", "policeRating": 1, "policeRatingStatus": "No cases yet", "address": "\u91d1\u6c34\u533a\u91d1\u6c34\u4e1c\u8def88\u53f7\u6977\u6797IFC\u56fd\u9645\u91d1\u878d\u4e2d\u5fc3D\u5ea7(\u4e0e\u5fc3\u6021\u8def\u4ea4\u6c47)", "openingHours": "18:30:00", "closingHours": "02:30:00", "detailsUrl": "http://localhost:8000/api/places/12/", "phoneNumber": "132 9999 9999", "randomImage": "/media/images/place12/zd04b3yfNL4GltXKZGldNfUu9PtkME.jpg"}}, {"type": "Feature", "geometry": {"type": "Point", "coordinates": [113.68592209754604, 34.80203980002847]}, "properties": {"title": "GLENBAR", "placeId": 13, "category": "Bar", "logo": "/static/img/no_logo.jpg", "rating": 0.0, "ratingStatus": "Not rated", "policeRating": 1, "policeRatingStatus": "No cases yet", "address": "\u6cb3\u5357\u90d1\u5dde\u79d1\u65b0\u8def8-10\u53f7", "openingHours": "18:30:00", "closingHours": "02:00:00", "detailsUrl": "http://localhost:8000/api/places/13/", "phoneNumber": "132 9999 9999", "randomImage": "/media/images/place13/m3dfdpi8VGApoueCdwzdEC6tph4H1K.jpg"}}, {"type": "Feature", "geometry": {"type": "Point", "coordinates": [113.6655000200822, 34.814535969238065]}, "properties": {"title": "Drunk Bar", "placeId": 14, "category": "Bar", "logo": "/static/img/no_logo.jpg", "rating": 0.0, "ratingStatus": "Not rated", "policeRating": 1, "policeRatingStatus": "No cases yet", "address": "\u91d1\u6c34\u533a\u4fe1\u606f\u5b66\u9662\u8def\u535a\u9882\u8def\u4ea4\u6c47\u5904\u897f\u5357\u89d2\u4e1c\u6da6\u6cf0\u548c\u65f6\u95f4\u96c68\u53f7\u697c\u4e00\u5c4211\u53f7", "openingHours": "19:00:00", "closingHours": "02:00:00", "detailsUrl": "http://localhost:8000/api/places/14/", "phoneNumber": "132 9999 9999", "randomImage": "/media/images/place14/dMLyGXrnVRi3nHWcxq1OlWvB5oGKEE.jpg"}}, {"type": "Feature", "geometry": {"type": "Point", "coordinates": [113.6824532009887, 34.79840067383065]}, "properties": {"title": "Matata whisky&cocktail bar", "placeId": 15, "category": "Bar", "logo": "/static/img/no_logo.jpg", "rating": 0.0, "ratingStatus": "Not rated", "policeRating": 1, "policeRatingStatus": "No cases yet", "address": "\u91d1\u6c34\u5eb7\u88d5\u4e2d\u533b\u95e8\u8bca\u90e8\u65c1", "openingHours": "12:00:00", "closingHours": "02:00:00", "detailsUrl": "http://localhost:8000/api/places/15/", "phoneNumber": "132 9999 9999", "randomImage": "/media/images/place15/UORdgZslJJH6N5SCwgt86FugPsLfSD.jpg"}}, {"type": "Feature", "geometry": {"type": "Point", "coordinates": [113.70414158649265, 34.76863820908356]}, "properties": {"title": "Kas", "placeId": 16, "category": "Bar", "logo": "/static/img/no_logo.jpg", "rating": 0.0, "ratingStatus": "Not rated", "policeRating": 4, "policeRatingStatus": "Constantly monitored", "address": "\u91d1\u6c34\u533a\u91d1\u6c34\u8def119\u53f7", "openingHours": "20:00:00", "closingHours": "08:00:00", "detailsUrl": "http://localhost:8000/api/places/16/", "phoneNumber": "132 9999 9999", "randomImage": "/media/images/place16/bDa8jFlfkmyNJktjyzoxcwBx8T5zk5.jpg"}}, {"type": "Feature", "geometry": {"type": "Point", "coordinates": [113.77723125941326, 34.760242302588715]}, "properties": {"title": "SEEK BAR", "placeId": 17, "category": "Bar", "logo": "/static/img/no_logo.jpg", "rating": 0.0, "ratingStatus": "Not rated", "policeRating": 2, "policeRatingStatus": "Better be cautious", "address": "\u90d1\u4e1c\u65b0\u533a\u4e1c\u98ce\u4e1c\u8def\u5546\u9f0e\u8def\u6587\u5316\u4ea7\u4e1a\u5927\u53a6A\u5ea7\u4e00\u697c", "openingHours": "18:00:00", "closingHours": "02:00:00", "detailsUrl": "http://localhost:8000/api/places/17/", "phoneNumber": "132 9999 9999", "randomImage": "/media/images/place17/MVWMlf62gTPATxMudZsIqt0UwmwaZi.png"}}, {"type": "Feature", "geometry": {"type": "Point", "coordinates": [113.68874191177916, 34.798281836275734]}, "properties": {"title": "\u56feBar", "placeId": 18, "category": "Bar", "logo": "/static/img/no_logo.jpg", "rating": 0.0, "ratingStatus": "Not rated", "policeRating": 1, "policeRatingStatus": "No cases yet", "address": "\u91d1\u6c34\u533a\u519c\u79d1\u8def\u5411\u4e1c50\u7c73\u9644\u8fd1", "openingHours": "12:00:00", "closingHours": "02:00:00", "detailsUrl": "http://localhost:8000/api/places/18/", "phoneNumber": "132 9999 9999", "randomImage": ""}}, {"type": "Feature", "geometry": {"type": "Point", "coordinates": [113.68874191177916, 34.798281836275734]}, "properties": {"title": "Kbar", "placeId": 19, "category": "Bar", "logo": "/static/img/no_logo.jpg", "rating": 0.0, "ratingStatus": "Not rated", "policeRating": 1, "policeRatingStatus": "No cases yet", "address": "\u91d1\u6c34\u533a\u519c\u79d1\u8def\u5411\u4e1c50\u7c73", "openingHours": "12:00:00", "closingHours": "02:00:00", "detailsUrl": "http://localhost:8000/api/places/19/", "phoneNumber": "132 9999 9999", "randomImage": ""}}, {"type": "Feature", "geometry": {"type": "Point", "coordinates": [113.68807461720904, 34.790702241777836]}, "properties": {"title": "MR PANCAKE HOUSE", "placeId": 21, "category": "Bar", "logo": "/static/img/no_logo.jpg", "rating": 0.0, "ratingStatus": "Not rated", "policeRating": 1, "policeRatingStatus": "No cases yet", "address": "\u91d1\u6c34\u533a\u82b1\u56ed\u8def39\u53f7\u56fd\u8d38\u4e2d\u5fc3360A\u5ea728\u5c422802\u5ba4", "openingHours": "11:00:00", "closingHours": "23:00:00", "detailsUrl": "http://localhost:8000/api/places/21/", "phoneNumber": "138 1620 0432", "randomImage": "/media/images/place21/B4ru6RFaQYtAFWaqjs4W6nxklbPdni.jfif"}}, {"type": "Feature", "geometry": {"type": "Point", "coordinates": [113.77678537918524, 34.75176045209624]}, "properties": {"title": "LIT STATION CLUB", "placeId": 22, "category": "Club", "logo": "/static/img/no_logo.jpg", "rating": 0.0, "ratingStatus": "Not rated", "policeRating": 2, "policeRatingStatus": "Better be cautious", "address": "\u4e1c\u7ad9\u5317\u8857\u666e\u60e0\u8def\u7eff\u5730\u9ad8\u94c1\u7ad9\u524d\u5e7f\u573aD4\u5730\u57573\u53f7", "openingHours": "20:00:00", "closingHours": "04:00:00", "detailsUrl": "http://localhost:8000/api/places/22/", "phoneNumber": "171 5820 2894", "randomImage": "/media/images/place22/JO5uNcuipT3yepYCWVEhh81Il0M4Yi.jfif"}}, {"type": "Feature", "geometry": {"type": "Point", "coordinates": [113.62894342525193, 34.81453133497929]}, "properties": {"title": "CS", "placeId": 23, "category": "Club", "logo": "/static/img/no_logo.jpg", "rating": 0.0, "ratingStatus": "Not rated", "policeRating": 2, "policeRatingStatus": "Better be cautious", "address": "\u60e0\u6d4e\u533a\u6c99\u53e3\u8def\u4e0e\u5174\u9686\u94fa\u8def\u5317100\u7c73\u8def\u4e1c\u4e2d\u50a8\u4ed3\u5e932\u697c", "openingHours": "12:00:00", "closingHours": "02:00:00", "detailsUrl": "http://localhost:8000/api/places/23/", "phoneNumber": "132 9999 9999", "randomImage": ""}}, {"type": "Feature", "geometry": {"type": "Point", "coordinates": [113.6910894203311, 34.79912296905777]}, "properties": {"title": "wonder", "placeId": 25, "category": "Club", "logo": "/static/img/no_logo.jpg", "rating": 0.0, "ratingStatus": "Not rated", "policeRating": 1, "policeRatingStatus": "No cases yet", "address": "\u91d1\u6c34\u533a\u519c\u4e1a\u79d1\u5b66\u9662\u4e1c\u5bb6\u5c5e\u9662(\u519c\u79d1\u8def)", "openingHours": "12:00:00", "closingHours": "02:00:00", "detailsUrl": "http://localhost:8000/api/places/25/", "phoneNumber": "132 9999 9999", "randomImage": ""}}, {"type": "Feature", "geometry": {"type": "Point", "coordinates": [113.68728742849743, 34.7699224122279]}, "properties": {"title": "DC", "placeId": 27, "category": "Club", "logo": "/static/img/no_logo.jpg", "rating": 0.0, "ratingStatus": "Not rated", "policeRating": 3, "policeRatingStatus": "Periodically monitored", "address": "\u91d1\u6c34\u533a\u91d1\u6c34\u8def13\u53f7", "openingHours": "16:00:00", "closingHours": "05:00:00", "detailsUrl": "http://localhost:8000/api/places/27/", "phoneNumber": "132 9999 9999", "randomImage": "/media/images/place27/KS4lj3v9HdEYxbcGY6NsrYgjjzLvf1.jpg"}}, {"type": "Feature", "geometry": {"type": "Point", "coordinates": [113.67454398029555, 34.771031971105806]}, "properties": {"title": "7LIVEHOUSE", "placeId": 28, "category": "Club", "logo": "/static/img/no_logo.jpg", "rating": 0.0, "ratingStatus": "Not rated", "policeRating": 1, "policeRatingStatus": "No cases yet", "address": "\u91d1\u6c34\u533a\u6587\u5316\u8def\u548c\u91d1\u6c34\u8def\u4ea4\u6c47\u5904\u4e1c\u5317\u89d2\u4e2d\u5dde\u7d22\u514b\u5f71\u57ce2\u5c42", "openingHours": "00:00:00", "closingHours": "00:00:00", "detailsUrl": "http://localhost:8000/api/places/28/", "phoneNumber": "186 3810 8823", "randomImage": "/media/images/place28/LI5eUAYvYl2UkNohTPbOypG0z0z0IF.jpg"}}, {"type": "Feature", "geometry": {"type": "Point", "coordinates": [113.7112340112229, 34.76651698879188]}, "properties": {"title": "Dr Oscar", "placeId": 29, "category": "Club", "logo": "/static/img/no_logo.jpg", "rating": 0.0, "ratingStatus": "Not rated", "policeRating": 5, "policeRatingStatus": "Detention cases", "address": "\u91d1\u6c34\u533a\u91d1\u6c34\u8def125\u53f7(\u66fc\u54c8\u987f)", "openingHours": "19:00:00", "closingHours": "06:00:00", "detailsUrl": "http://localhost:8000/api/places/29/", "phoneNumber": "132 9999 9999", "randomImage": "/media/images/place29/8myodYhpbbX3kjucy5C16iSDaFe289.jfif"}}, {"type": "Feature", "geometry": {"type": "Point", "coordinates": [113.6983636890457, 34.753396958263274]}, "properties": {"title": "HAO", "placeId": 30, "category": "Pub", "logo": "/static/img/no_logo.jpg", "rating": 0.0, "ratingStatus": "Not rated", "policeRating": 2, "policeRatingStatus": "Better be cautious", "address": "\u7ba1\u57ce\u56de\u65cf\u533a\u90d1\u6c74\u8def5\u53f74\u53f7\u697c\u9644\u8fd1", "openingHours": "06:00:00", "closingHours": "04:00:00", "detailsUrl": "http://localhost:8000/api/places/30/", "phoneNumber": "170 1383 9943", "randomImage": "/media/images/place30/OJLcDIrLTiK1uZhToFp7gkywgiH8fB.jpg"}}, {"type": "Feature", "geometry": {"type": "Point", "coordinates": [113.68709501505042, 34.799298521329256]}, "properties": {"title": "Heat Pub", "placeId": 31, "category": "Pub", "logo": "/static/img/no_logo.jpg", "rating": 0.0, "ratingStatus": "Not rated", "policeRating": 2, "policeRatingStatus": "Better be cautious", "address": "\u91d1\u6c34\u533a\u82b1\u56ed\u8def\u4e0e\u79d1\u6e90\u8def\u4ea4\u53c9\u8def\u53e3\u5f80\u897f\u5357\u7ea6100\u7c73(\u5efa\u4e1a\u00b7\u51ef\u65cb\u5e7f\u573a)", "openingHours": "12:00:00", "closingHours": "02:00:00", "detailsUrl": "http://localhost:8000/api/places/31/", "phoneNumber": "156 1766 7788", "randomImage": "/media/images/place31/aHIxxQ7PF1VQZ9ZT2oJjC60t7XL62c.jpg"}}, {"type": "Feature", "geometry": {"type": "Point", "coordinates": [113.6498885482854, 34.72437008141209]}, "properties": {"title": "MOMO", "placeId": 32, "category": "Pub", "logo": "/static/img/no_logo.jpg", "rating": 0.0, "ratingStatus": "Not rated", "policeRating": 3, "policeRatingStatus": "Periodically monitored", "address": "\u4e8c\u4e03\u533a\u5927\u5b66\u8def\u4e0e\u822a\u6d77\u8def\u4ea4\u53c9\u53e3\u4e8c\u4e03\u4e07\u8fbe\u5e7f\u573a12\u53f7\u697c-A\u5ea714\u697c1423\u5ba4", "openingHours": "12:00:00", "closingHours": "02:00:00", "detailsUrl": "http://localhost:8000/api/places/32/", "phoneNumber": "158 3801 4426", "randomImage": "/media/images/place32/EASt9iFVZzZTf7VNvJpHqAwnR3itqh.jpg"}}, {"type": "Feature", "geometry": {"type": "Point", "coordinates": [113.63869117010353, 34.73284250830536]}, "properties": {"title": "Gather", "placeId": 33, "category": "Pub", "logo": "/static/img/no_logo.jpg", "rating": 0.0, "ratingStatus": "Not rated", "policeRating": 1, "policeRatingStatus": "No cases yet", "address": "\u4e8c\u4e03\u533a\u5174\u534e\u5357\u885756\u53f7", "openingHours": "19:00:00", "closingHours": "02:00:00", "detailsUrl": "http://localhost:8000/api/places/33/", "phoneNumber": "181 3718 2789", "randomImage": "/media/images/place33/xpNHwqWOCp62wrBmIswvLKjPG8UB4C.jpg"}}, {"type": "Feature", "geometry": {"type": "Point", "coordinates": [113.73379046257844, 34.776464297528356]}, "properties": {"title": "Paulaner", "placeId": 34, "category": "Pub", "logo": "/static/img/no_logo.jpg", "rating": 0.0, "ratingStatus": "Not rated", "policeRating": 1, "policeRatingStatus": "No cases yet", "address": "\u90d1\u4e1c\u65b0\u533a\u5185\u73af\u8def\u4e2d\u592e\u516c\u56ed2\u53f7\u5343\u73ba\u5e7f\u573a\u7389\u7c73\u697c\u4e00\u697c", "openingHours": "11:00:00", "closingHours": "01:00:00", "detailsUrl": "http://localhost:8000/api/places/34/", "phoneNumber": "132 9999 9999", "randomImage": "/media/images/place34/d0h4GYO8BgjJaaO7lLlq4I0gVAq7zv.jpg"}}, {"type": "Feature", "geometry": {"type": "Point", "coordinates": [113.70551270342985, 34.808419606399184]}, "properties": {"title": "Zax BBQ", "placeId": 38, "category": "Pub", "logo": "/static/img/no_logo.jpg", "rating": 0.0, "ratingStatus": "Not rated", "policeRating": 4, "policeRatingStatus": "Constantly monitored", "address": "\u91d1\u6c34\u533a\u84dd\u5b9d\u6e7e\u8d35\u4eba\u88576-106", "openingHours": "17:00:00", "closingHours": "22:00:00", "detailsUrl": "http://localhost:8000/api/places/38/", "phoneNumber": "185 3007 0755", "randomImage": "/media/images/place38/ukiP70ftvXVH3twOJZDpmgPrTXUMtJ.jfif"}}]}